{
"type": "FeatureCollection",
"name": "clis",
"crs": { "type": "name", "properties": { "name": "urn:ogc:def:crs:OGC:1.3:CRS84" } },
"features": [
{ "type": "Feature", "properties": { "name": "Werkplaats Roeselare", "address": "Beverensteenweg 177  BE- 8800 Roeselare" }, "geometry": { "type": "Point", "coordinates": [ 3.1304148, 50.9569791 ] } },
{ "type": "Feature", "properties": { "name": "South City", "address": "Place Marcel Broodthaers 2 1060 Bruxelles" }, "geometry": { "type": "Point", "coordinates": [ 4.337664, 50.8329984 ] } },
{ "type": "Feature", "properties": { "name": "Ringstation", "address": "Rue des Deux Gares, 82 1070 Anderlecht" }, "geometry": { "type": "Point", "coordinates": [ 4.3269562, 50.8322244 ] } },
{ "type": "Feature", "properties": { "name": "Recycling Office", "address": "Place Marcel Broodthaers, 2 - 1060 Bruxelles" }, "geometry": { "type": "Point", "coordinates": [ 4.3382224, 50.835775 ] } },
{ "type": "Feature", "properties": { "name": "LCI–Antenne Antwerpen-Oost", "address": "Draakplaats  BE- 2018 Antwerpen" }, "geometry": { "type": "Point", "coordinates": [ 4.4322243, 51.205755 ] } },
{ "type": "Feature", "properties": { "name": "LCI-Antenne Zottegem", "address": "Broeder Mareslaan  BE- 9620 Zottegem" }, "geometry": { "type": "Point", "coordinates": [ 3.8160958, 50.871231 ] } },
{ "type": "Feature", "properties": { "name": "LCI-Antenne Zeebrugge", "address": "New Yorklaan  BE- 8380 Zeebrugge" }, "geometry": { "type": "Point", "coordinates": [ 3.1860466000001, 51.3303575 ] } },
{ "type": "Feature", "properties": { "name": "LCI-Antenne Zaventem", "address": "Heldenplein  BE- 1930 Zaventem" }, "geometry": { "type": "Point", "coordinates": [ 4.4714456, 50.8849484 ] } },
{ "type": "Feature", "properties": { "name": "LCI-Antenne Wondelgem", "address": "Molenstraat thv 37  BE- 9032 Wondelgem" }, "geometry": { "type": "Point", "coordinates": [ 3.7145649, 51.0854564 ] } },
{ "type": "Feature", "properties": { "name": "LCI-Antenne Sint-Niklaas", "address": "Nieuwe Molenstraat 23 BE- 9100 Sint-Niklaas" }, "geometry": { "type": "Point", "coordinates": [ 4.1547025, 51.1745724 ] } },
{ "type": "Feature", "properties": { "name": "LCI-Antenne Oostende", "address": "Konterdamkaai  BE- 8800 Oostende" }, "geometry": { "type": "Point", "coordinates": [ 2.9320344, 51.2212331 ] } },
{ "type": "Feature", "properties": { "name": "LCI-Antenne Mol", "address": "Keirlandse Zillen  BE- 2400 Mol" }, "geometry": { "type": "Point", "coordinates": [ 5.1143048, 51.1914503 ] } },
{ "type": "Feature", "properties": { "name": "LCI-Antenne Lier", "address": "Leopoldplein 32  BE- 2500 Lier" }, "geometry": { "type": "Point", "coordinates": [ 4.5623647, 51.1358405 ] } },
{ "type": "Feature", "properties": { "name": "LCI-Antenne Lichtervelde", "address": "Weststraat  BE- 8810 Lichtervelde" }, "geometry": { "type": "Point", "coordinates": [ 3.1215627, 51.0291267 ] } },
{ "type": "Feature", "properties": { "name": "LCI-Antenne Halle", "address": "Jean Laroystraat  BE- 1500 Halle" }, "geometry": { "type": "Point", "coordinates": [ 4.2427595, 50.7415965 ] } },
{ "type": "Feature", "properties": { "name": "LCI-Antenne Geraardsbergen", "address": "Stationsplein 39  BE- 9500 Geraardsbergen" }, "geometry": { "type": "Point", "coordinates": [ 3.8729848, 50.7719023 ] } },
{ "type": "Feature", "properties": { "name": "LCI-Antenne Gentbrugge", "address": "Mellestraat  BE- 9050 Gentbrugge" }, "geometry": { "type": "Point", "coordinates": [ 3.7636998, 51.0199529 ] } },
{ "type": "Feature", "properties": { "name": "LCI-Antenne Diksmuide", "address": "Bortierlaan  BE- 8600 Diksmuide" }, "geometry": { "type": "Point", "coordinates": [ 2.8687866, 51.0327264 ] } },
{ "type": "Feature", "properties": { "name": "LCI-Antenne Dendermonde", "address": "Werkplaatsstraat  BE- 9200 Dendermonde" }, "geometry": { "type": "Point", "coordinates": [ 4.1118802, 51.0226622 ] } },
{ "type": "Feature", "properties": { "name": "LCI-Antenne Deinze", "address": "Stationsstraat  BE- 9800 Deinze" }, "geometry": { "type": "Point", "coordinates": [ 3.5315143, 50.9788576 ] } },
{ "type": "Feature", "properties": { "name": "LCI-Antenne Bundel-Zuid", "address": "Hazopweg 7  BE- 9120 Beveren" }, "geometry": { "type": "Point", "coordinates": [ 4.2325387, 51.2490296 ] } },
{ "type": "Feature", "properties": { "name": "LCI-Antenne Bruxelles-Nord", "address": "Rue du Progrès 76  BE- 1030 Schaerbeek" }, "geometry": { "type": "Point", "coordinates": [ 4.3601396, 50.8604558 ] } },
{ "type": "Feature", "properties": { "name": "LCI-Antenne Antwerpen Luchtbal", "address": "Argentiniëlaan  BE- 2030 Antwerpen" }, "geometry": { "type": "Point", "coordinates": [ 4.4269404, 51.2616489 ] } },
{ "type": "Feature", "properties": { "name": "LCI- Antenne Tienen", "address": "Tramstraat  BE- 3300 Tienen" }, "geometry": { "type": "Point", "coordinates": [ 4.9202774269836, 50.810243648186002 ] } },
{ "type": "Feature", "properties": { "name": "LCI- Antenne Genk", "address": "Noordlaan  BE- 3600 Genk" }, "geometry": { "type": "Point", "coordinates": [ 5.4745978999999, 50.9762801 ] } },
{ "type": "Feature", "properties": { "name": "LCI Muizen", "address": "Smisstraat 50  BE- 2812 Muizen" }, "geometry": { "type": "Point", "coordinates": [ 4.4990926518676, 51.018871849486999 ] } },
{ "type": "Feature", "properties": { "name": "LCI Leuven", "address": "Diestsesteenweg 3 BE- 3010 Leuven" }, "geometry": { "type": "Point", "coordinates": [ 4.7515505, 50.8883109 ] } },
{ "type": "Feature", "properties": { "name": "LCI Kortrijk", "address": "Marksesteenweg 167  BE- 8500 Kortrijk" }, "geometry": { "type": "Point", "coordinates": [ 3.2484183, 50.8196062 ] } },
{ "type": "Feature", "properties": { "name": "LCI Hasselt", "address": "Kuringersteenweg 324 BE- 3500 Hasselt" }, "geometry": { "type": "Point", "coordinates": [ 5.3091899, 50.938344 ] } },
{ "type": "Feature", "properties": { "name": "LCI Gent-Zeehaven", "address": "Noordveenakkerstraat 51  BE- 9000 Gent" }, "geometry": { "type": "Point", "coordinates": [ 3.7454763000001, 51.0739013 ] } },
{ "type": "Feature", "properties": { "name": "LCI Gent-St-Pieters", "address": "Koningin Fabiolalaan 151 BE- 9000 Gent" }, "geometry": { "type": "Point", "coordinates": [ 3.6955559, 51.040341 ] } },
{ "type": "Feature", "properties": { "name": "LCI Denderleeuw", "address": "Kouterbaan 161  BE- 9470 Denderleeuw" }, "geometry": { "type": "Point", "coordinates": [ 4.0662941000001, 50.8927181 ] } },
{ "type": "Feature", "properties": { "name": "LCI Brugge", "address": "Chantrellstraat 20  BE- 8000 Brugge" }, "geometry": { "type": "Point", "coordinates": [ 3.2214336, 51.1959989 ] } },
{ "type": "Feature", "properties": { "name": "LCI Antwerpen-Noord", "address": "Haven 500 Noorderlaan 630 BE- 2030 Antwerpen" }, "geometry": { "type": "Point", "coordinates": [ 4.3779371000001, 51.2908177 ] } },
{ "type": "Feature", "properties": { "name": "LCI Antwerpen - Berchem", "address": "Generaal Van Merlenstraat 1 BE- 2600 Berchem" }, "geometry": { "type": "Point", "coordinates": [ 4.4304204, 51.2025542 ] } },
{ "type": "Feature", "properties": { "name": "LCI Antenne Aarschot", "address": "Nijverheidslaan 12A BE- 3200 Aarschot" }, "geometry": { "type": "Point", "coordinates": [ 4.8223707, 50.9907422 ] } },
{ "type": "Feature", "properties": { "name": "CLI-Antenne Yvoir", "address": "Place de la Gare  BE- 5530 Yvoir" }, "geometry": { "type": "Point", "coordinates": [ 4.8780282, 50.320809 ] } },
{ "type": "Feature", "properties": { "name": "CLI-Antenne Welkenraedt", "address": "Boulevard Hector Grosjean  BE- 4840 Welkenraedt" }, "geometry": { "type": "Point", "coordinates": [ 5.9773242, 50.65888 ] } },
{ "type": "Feature", "properties": { "name": "CLI-Antenne Visé", "address": "Route de Maastricht  BE- 4600 Visé" }, "geometry": { "type": "Point", "coordinates": [ 5.7022914, 50.7452587 ] } },
{ "type": "Feature", "properties": { "name": "CLI-Antenne Virton", "address": "Avenue Bouvier  BE- 6762 Virton" }, "geometry": { "type": "Point", "coordinates": [ 5.5240886, 49.5642864 ] } },
{ "type": "Feature", "properties": { "name": "CLI-Antenne Verviers", "address": "Rue Pierre Piqueray  BE- 4860 Pepinster" }, "geometry": { "type": "Point", "coordinates": [ 5.8049057000001, 50.5685823 ] } },
{ "type": "Feature", "properties": { "name": "CLI-Antenne Trois-Ponts", "address": "Place de la Gare  BE- 4980 Trois-Pont" }, "geometry": { "type": "Point", "coordinates": [ 5.8726183, 50.3684881 ] } },
{ "type": "Feature", "properties": { "name": "CLI-Antenne Schaerbeek", "address": "Place Princesse Elisabeth 6  BE- 1030 Schaerbeek" }, "geometry": { "type": "Point", "coordinates": [ 4.3797071, 50.8780318 ] } },
{ "type": "Feature", "properties": { "name": "CLI-Antenne Saint-Ghislain", "address": "Rue Marius Renard  BE- 7330 Saint-Ghislain" }, "geometry": { "type": "Point", "coordinates": [ 3.8319164, 50.4421118 ] } },
{ "type": "Feature", "properties": { "name": "CLI-Antenne Ottignies", "address": "Avenue Demolder 54a  BE- 1340 Ottignies" }, "geometry": { "type": "Point", "coordinates": [ 4.563591, 50.6781635 ] } },
{ "type": "Feature", "properties": { "name": "CLI-Antenne Namur", "address": "Boulevard d'Herbatte  BE- 5000 Namur" }, "geometry": { "type": "Point", "coordinates": [ 4.8748124, 50.4685548 ] } },
{ "type": "Feature", "properties": { "name": "CLI-Antenne Monceau", "address": "Rue de Roux  BE- 6044 Roux" }, "geometry": { "type": "Point", "coordinates": [ 4.3859913, 50.4411759 ] } },
{ "type": "Feature", "properties": { "name": "CLI-Antenne Liège", "address": "Rue Ernest Solvay  BE- 4000 Liège" }, "geometry": { "type": "Point", "coordinates": [ 5.5561344, 50.6095385 ] } },
{ "type": "Feature", "properties": { "name": "CLI-Antenne Libramont", "address": "Rue des Alliés  BE- 6800 Libramont" }, "geometry": { "type": "Point", "coordinates": [ 5.3840051, 49.9178196 ] } },
{ "type": "Feature", "properties": { "name": "CLI-Antenne Kinkempois", "address": "Rue du Chêne  BE- 4031 Kinkempois" }, "geometry": { "type": "Point", "coordinates": [ 5.5807457999999, 50.6115929 ] } },
{ "type": "Feature", "properties": { "name": "CLI-Antenne Huy", "address": "Place Zénobe Gramme  BE- 4500 Huy" }, "geometry": { "type": "Point", "coordinates": [ 5.2337755, 50.5268338 ] } },
{ "type": "Feature", "properties": { "name": "CLI-Antenne Gembloux", "address": "Chaussée de Wavre  BE- 5020 Gembloux" }, "geometry": { "type": "Point", "coordinates": [ 4.6913764999999, 50.5722353 ] } },
{ "type": "Feature", "properties": { "name": "CLI-Antenne Fleurus", "address": "Rue Saint-Roch  BE- 6220 Fleurus" }, "geometry": { "type": "Point", "coordinates": [ 4.5432264999999, 50.4832036 ] } },
{ "type": "Feature", "properties": { "name": "CLI-Antenne Etterbeek", "address": "Boulevard Général Jacques 263  BE- 1050 Ixelles" }, "geometry": { "type": "Point", "coordinates": [ 4.3890249, 50.8220142 ] } },
{ "type": "Feature", "properties": { "name": "CLI-Antenne Ciney", "address": "Place Emile Vandervelde  BE- 5590 Ciney" }, "geometry": { "type": "Point", "coordinates": [ 5.0916738, 50.2914296 ] } },
{ "type": "Feature", "properties": { "name": "CLI-Antenne Châtelet", "address": "Rue de l'Yser  BE- 6200 Châtelet" }, "geometry": { "type": "Point", "coordinates": [ 4.5198393000001, 50.4106607 ] } },
{ "type": "Feature", "properties": { "name": "CLI-Antenne Bruxelles-Sud", "address": "Rue des Vétérinaires 113 BE- 1070 Anderlecht" }, "geometry": { "type": "Point", "coordinates": [ 4.3312099, 50.8322527 ] } },
{ "type": "Feature", "properties": { "name": "CLI-Antenne Braine-le-Comte", "address": "Chemin du Chevauchoire de Binche  BE- 7090 Braine-le-Comte" }, "geometry": { "type": "Point", "coordinates": [ 4.1400004, 50.5997458 ] } },
{ "type": "Feature", "properties": { "name": "CLI-Antenne Bertrix", "address": "Rue d'Orgeo  BE- 6880 Bertrix" }, "geometry": { "type": "Point", "coordinates": [ 5.2755083, 49.8456057 ] } },
{ "type": "Feature", "properties": { "name": "CLI Tournai", "address": "Rue Basse Couture  BE- 7500 Tournai" }, "geometry": { "type": "Point", "coordinates": [ 3.4052182, 50.6124526 ] } },
{ "type": "Feature", "properties": { "name": "CLI Ronet", "address": "Chemin du Tir  BE- 5020 Ronet" }, "geometry": { "type": "Point", "coordinates": [ 4.8201043, 50.4517929 ] } },
{ "type": "Feature", "properties": { "name": "CLI Petite Ile", "address": "Rue des deux Gares 128 BE- 1070 Bruxelles" }, "geometry": { "type": "Point", "coordinates": [ 4.3231098, 50.8316623 ] } },
{ "type": "Feature", "properties": { "name": "CLI Mons", "address": "Avenue Melina Mercouri 2  BE- 7000 Mons" }, "geometry": { "type": "Point", "coordinates": [ 3.9412966, 50.4559955 ] } },
{ "type": "Feature", "properties": { "name": "CLI Luttre", "address": "Rue de l'Atelier Central  BE- 6230 Pont-à-Celles" }, "geometry": { "type": "Point", "coordinates": [ 4.374914, 50.506037 ] } },
{ "type": "Feature", "properties": { "name": "CLI La Louvière", "address": "Rue des Fonds Gaillards  BE- 7100 La Louvière" }, "geometry": { "type": "Point", "coordinates": [ 4.1857024999999, 50.4634171 ] } },
{ "type": "Feature", "properties": { "name": "CLI Jemelle", "address": "Route des Forrières  BE- 5580 Jemelle" }, "geometry": { "type": "Point", "coordinates": [ 5.2709222, 50.148998 ] } },
{ "type": "Feature", "properties": { "name": "CLI Charleroi", "address": "Rue Champeau 1  BE- 6061 Montignies-sur-Sambre" }, "geometry": { "type": "Point", "coordinates": [ 4.4971897, 50.4035205 ] } },
{ "type": "Feature", "properties": { "name": "CLI Ath", "address": "Chemin des Cheminots  BE- 7800 Ath" }, "geometry": { "type": "Point", "coordinates": [ 3.781526, 50.6269376 ] } },
{ "type": "Feature", "properties": { "name": "CLI Arlon", "address": "Rue des Thermes Romains 7  BE- 6700 Arlon" }, "geometry": { "type": "Point", "coordinates": [ 5.8140664, 49.6802133 ] } },
{ "type": "Feature", "properties": { "name": "CLI Ans", "address": "Rue Aily  BE-  4430 Ans" }, "geometry": { "type": "Point", "coordinates": [ 5.5039661000001, 50.6609948 ] } },
{ "type": "Feature", "properties": { "name": "CLI Angleur", "address": "Route de Tilff  BE- 4020 Angleur" }, "geometry": { "type": "Point", "coordinates": [ 5.5912717, 50.5980063 ] } },
{ "type": "Feature", "properties": { "name": "Central warehouse", "address": "Rue Pré aux Oies 301 1130 Bruxelles" }, "geometry": { "type": "Point", "coordinates": [ 4.418049, 50.900516 ] } },
{ "type": "Feature", "properties": { "name": "Atelier Bascoup", "address": "Rue d'Anderlues 187  BE- 7160 Chapelle-lez-Herlaimont" }, "geometry": { "type": "Point", "coordinates": [ 4.2696192999999, 50.460922 ] } }
]
}
